[{"name": "Bhana Brothers Fruiterers","address": "129 Ponsonby Road, Ponsonby","region": "Auckland","phone": "09 3765329","latitude": -36.855447,"longitude": 174.746581},
{"name": "Greenways Pure Fruit Juices","address": "16 Wayside Rd, Waikato, New Zealand","region": "Waikato","phone": "07 826 3674","latitude": -37.412874,"longitude": 175.129360},
{"name": "Bulk Food Savings","address": "3/217 Dominion Road, Mt Eden, Auckland","region": "Auckland","phone": "09 6306235","latitude": -36.875620,"longitude": 174.750925},
{"name": "Food For Thought","address": "69 Ruataniwha Street, Waipukurao","region": "Hawkes Bay","phone": "06 8588 908","latitude": -39.995449,"longitude": 176.555199},
{"name": "Gilmours - Hamilton","address": "13 Simsey Place, Te Rapa","region": "Auckland","phone": "09 6210600","latitude": -37.735385,"longitude": 175.220562},
{"name": "Gilmours - Henderson","address": "133 Central Park Drive, Auckland","region": "Auckland","phone": "09 6210600","latitude": -36.853369,"longitude": 174.638424},
{"name": "Gilmours - North Shore","address": "37 Constellation Drive, Auckland","region": "Auckland","phone": "09 4795435","latitude": -36.748870,"longitude": 174.732691},
{"name": "Gilmours - Mt Roskil","address": "May Road Mt Roskil","region": "Auckland","phone": "09 6210700","latitude": -36.909423,"longitude": 174.734714},
{"name": "Gilmours - Manukau","address": "77 Cavendish Drive, Manukau","region": "Auckland","phone": "09 2622 122","latitude": -36.989322,"longitude": 174.870961},
{"name": "Countdown - Auckland Airport","address": "John Goulter Drive Auckland","region": "Auckland","phone": "(09) 256 2128","latitude": -36.998038,"longitude": 174.788913},
{"name": "Countdown - Auckland City","address": "76 Quay Street Auckland City","region": "Auckland","phone": "(09) 275 2567","latitude": -36.845221,"longitude": 174.772939},
{"name": "Countdown - Aviemore Drive","address": "Aviemore Drive, Pakuranga Highway, Pakuranga","region": "Auckland","phone": "(09) 534 7149","latitude": -36.906297,"longitude": 174.905177},
{"name": "Countdown - Birkenhead","address": "33 Birkenhead Avenue, Auckland","region": "Auckland","phone": "(09) 480 0675","latitude": -36.811524,"longitude": 174.726114},
{"name": "Countdown - Botany Downs","address": "475, Ti Rakau Drive, Botany","region": "Auckland","phone": "(09) 255 2386","latitude": -36.930112,"longitude": 174.910950},
{"name": "Countdown - Glenfield","address": "34-38 Downing Street, Glenfield, New Zealand","region": "Auckland","phone": "(09) 444 0400","latitude": -36.783246,"longitude": 174.722131},
{"name": "Countdown - Greenlane","address": "326 Great South Road, Greenlane","region": "Auckland","phone": "(09) 255 2381","latitude": -36.889361,"longitude": 174.793612},
{"name": "Countdown - Grey Lynn","address": "271 Richmond Road, Grey Lynn","region": "Auckland","phone": "(09) 255 2451","latitude": -36.854742,"longitude": 174.731524},
{"name": "countdown - Henderson","address": "7 Catherine Street, Henderson","region": "Auckland","phone": "(09) 255 2477","latitude": -36.880438,"longitude": 174.632566},
{"name": "Countdown - Highland Park","address": "507 Pakuranga road, Highland Park, Auckland","region": "Auckland","phone": "(09) 255 2466","latitude": -36.899400,"longitude": 174.908263},
{"name": "Countdown - Howick","address": "35 Cook Street, Howick, Auckland","region": "Auckland","phone": "(09) 255 2399","latitude": -36.896077,"longitude": 174.932651},
{"name": "Countdown - Kelston","address": "2 West Coast Road, Kelston","region": "Auckland","phone": "(09) 255 2440","latitude": -36.908929,"longitude": 174.663668},
{"name": "Countdown - Lynfield","address": "570 Hillsborough Road, Lynfield, Auckland","region": "Auckland","phone": "(09) 626 0371","latitude": -36.924735,"longitude": 174.722355},
{"name": "Countdown - Lynnmall","address": "Lynnmall Shopping Centre, Great North Road, Auckland","region": "Auckland","phone": "(09) 827 3352","latitude": -36.889380,"longitude": 174.697394},
{"name": "Countdown - Mairangi Bay","address": "3 Ramsgate Terrace, Mairangi Bay","region": "Auckland","phone": "(09) 255 2392","latitude": -36.739781,"longitude": 174.753131},
{"name": "Countdown - Mangere Mall","address": "Mangere Town Centre, Bader Drive, Mangere","region": "Auckland","phone": "(09) 275 7378","latitude": -36.968991,"longitude": 174.799750},
{"name": "Countdown - Mangere","address": "Cnr Massey and Yates Roads, Mangere, Auckland","region": "Auckland","phone": "(09) 275 6820","latitude": -36.968628,"longitude": 174.793687},
{"name": "Countdown - Manukau","address": "652 Great South Road, Manukau, Auckland","region": "Auckland","phone": "(09) 255 2448","latitude": -36.987235,"longitude": 174.883600},
{"name": "Countdown - Manukau City Mall","address": "Shop 99, Manukau City Centre, Manukau, Auckland","region": "Auckland","phone": "(09) 255 2448","latitude": -36.958661,"longitude": 174.893304},
{"name": "Countdown - Massey","address": "26 Benchmark Drive, Massey, Auckland","region": "Auckland","phone": "(09) 833 9596","latitude": -36.834668,"longitude": 174.622124},
{"name": "Countdown - Meadowbank","address": "35-47 St Johns Road, Meadowbank, Auckland","region": "Auckland","phone": "(09) 255 2383","latitude": -36.875878,"longitude": 174.828165},
{"name": "Countdown - Milford","address": "9A Pierce Road, Milford, Auckland","region": "Auckland","phone": "(09) 255 2445","latitude": -36.774395,"longitude": 174.767099},
{"name": "Countdown - Mt Eden","address": "296k Dominion Road, Mt Eden, Auckland","region": "Auckland","phone": "(09) 255 2406","latitude": -36.877869,"longitude": 174.750688},
{"name": "Countdown - Mt Wellington","address": "238A Mt Wellington Highway, Mt Wellington, Auckland","region": "Auckland","phone": "(09) 255 2449","latitude": -36.911356,"longitude": 174.838258},
{"name": "Countdown - Newmarket","address": "317 Broadway, Newmarket, Auckland","region": "Auckland","phone": "(09) 520 3231","latitude": -36.872254,"longitude": 174.776760},
{"name": "Countdown - Northcote","address": "9 Lake Road, Northcote, Auckland","region": "Auckland","phone": "(09) 480 0361","latitude": -36.810285,"longitude": 174.743922},
{"name": "Countdown - Onehunga","address": "72 Church St, Onehunga, Auckland","region": "Auckland","phone": "(09) 634 3688","latitude": -36.922899,"longitude": 174.783448},
{"name": "Countdown - Orewa","address": "Moenui Avenue, Orewa, Auckland","region": "Auckland","phone": "(09) 421 9300","latitude": -36.588748,"longitude": 174.694558},
{"name": "Countdown - Pakuranga","address": "25 Ti Rakau Drive, Pakuranga, Auckland","region": "Auckland","phone": "(09) 255 2460","latitude": -36.914691,"longitude": 174.870092},
{"name": "Countdown - Papakura","address": "2 Averill Street, Papakura, Auckland","region": "Auckland","phone": "(09) 255 2387","latitude": -37.063601,"longitude": 174.943790},
{"name": "Countdown - Papatoetoe","address": "217 Great South Road, Papatoetoe, Auckland","region": "Auckland","phone": "(09) 277 6409","latitude": -36.970991,"longitude": 174.860331},
{"name": "Countdown - Point Chevalier","address": "13 Point Chevalier Road, Point Chevalier, Auckland","region": "Auckland","phone": "(09) 255 2464","latitude": -36.869764,"longitude": 174.710230},
{"name": "Countdown - Roselands Mall","address": "3 Oshannessey St, Papakura, Auckland","region": "Auckland","phone": "(09) 255 2455","latitude": -37.059842,"longitude": 174.941056},
{"name": "Countdown - Pukekohe","address": "14 Tobin St, Pukekohe, Auckland","region": "Auckland","phone": "(09) 237 0220","latitude": -37.199556,"longitude": 174.902217},
{"name": "Countdown - Pukekohe South","address": "186-192 Manukau Road, Pukekohe, Auckland","region": "Auckland","phone": "(09) 237 3080","latitude": -37.211235,"longitude": 174.910382},
{"name": "Countdown - St Lukes","address": "1 Fowlds Ave, Mount Albert, Auckland","region": "Auckland","phone": "(09) 255 2382","latitude": -36.884652,"longitude": 174.733193},
{"name": "Countdown - Sunnynook","address": "108 Becroft Drive, Sunnynook, Auckland","region": "Auckland","phone": "(09) 255 2470","latitude": -36.760773,"longitude": 174.741591},
{"name": "Countdown - Sylvia Park","address": "300 Mt Wellington Highway, Mt Wellington, Auckland","region": "Auckland","phone": "(09) 255 2397","latitude": -36.914666,"longitude": 174.838838},
{"name": "Countdown - Takanini","address": "228 Great South Road, Takanini, Auckland","region": "Auckland","phone": "(09) 255 2408","latitude": -37.048741,"longitude": 174.927508},
{"name": "Countdown - Te Atatu","address": "583 Te Atatu Road, Te Atatu, Auckland","region": "Auckland","phone": "(09) 834 8580","latitude": -36.842610,"longitude": 174.652449},
{"name": "Countdown - Three Kings","address": "532 Mt Albert Road, Three Kings, Auckland","region": "Auckland","phone": "(09) 625 8135","latitude": -36.909155,"longitude": 174.755539},
{"name": "Countdown - Westgate","address": "8 Westgate Drive, Massey North, Auckland","region": "Auckland","phone": "(09) 255 2479","latitude": -36.823386,"longitude": 174.610162},
{"name": "Countdown - Whangaparaoa","address": "3 McKenzie Ave, Whangaparaoa, Auckland","region": "Auckland","phone": "(09) 424 9222","latitude": -36.638350,"longitude": 174.749083},
{"name": "Countdown - Bayfair","address": "19A Girven Road, Mt Maunganui, Bay of Plenty","region": "Bay of Plenty","phone": "(07) 575 5947","latitude": -37.674737,"longitude": 176.225143},
{"name": "Countdown - Bethlehem","address": "19 Bethlehem Road, Tauranga, Bay of Plenty","region": "Bay of Plenty","phone": "(07) 579 2862","latitude": -37.693476,"longitude": 176.110587},
{"name": "Countdown - Central Mall","address": "Victoria St, Rotorua, Bay of Plenty","region": "Bay of Plenty","phone": "(07) 349 6501","latitude": -38.142314,"longitude": 176.250338},
{"name": "Countdown - Greerton","address": "1368 Cameron Road, Tauranga, Bay of Plenty","region": "Bay of Plenty","phone": "(07) 541 2244","latitude": -37.727095,"longitude": 176.132073},
{"name": "Countdown - Papamoa","address": "14 Gravatt Road, Papamoa, Bay of Plenty","region": "Bay of Plenty","phone": "(07) 572 0170","latitude": -37.701977,"longitude": 176.282475},
{"name": "Countdown - Rotorua","address": "246 Fenton Street, Rotorua, Bay of Plenty","region": "Bay of Plenty","phone": "(07) 350 3277","latitude": -38.142734,"longitude": 176.254116},
{"name": "Countdown - Tauranga","address": "618 Cameron Road, Tauranga, Bay of Plenty","region": "Bay of Plenty","phone": "(07) 578 0055","latitude": -37.700415,"longitude": 176.157727},
{"name": "Countdown - Te Puke","address": "3 Gilmore St, Te Puke, Bay of Plenty","region": "Bay of Plenty","phone": "(07) 573 0058","latitude": -37.786644,"longitude": 176.324094},
{"name": "Countdown - Whakatane","address": "105-125 Commerce Street, Whakatane, Bay of Plenty","region": "Bay of Plenty","phone": "(07) 306 0014","latitude": -37.957229,"longitude": 176.993899},
{"name": "Countdown - Fraser Cove","address": "243 Fraser Street, Tauranga, Bay of Plenty","region": "Bay of Plenty","phone": "(07) 571 0500","latitude": -37.713522,"longitude": 176.151739},
{"name": "Countdown - Gisborne","address": "359 Gladstone Rd, Gisborne","region": "Gisborne","phone": "(06) 868 9073","latitude": -38.661078,"longitude": 178.018914},
{"name": "Countdown - Greymouth","address": "174 Mawhera Quay, Greymouth, West Coast","region": "West Coast","phone": "(03) 769 9210","latitude": -42.448043,"longitude": 171.216063},
{"name": "Countdown - Westport","address": "18 Fonblanque Street, Westport, West Coast","region": "West Coast","phone": "(03) 788 9100","latitude": -41.759790,"longitude": 171.602043},
{"name": "Countdown - Victoria Ave","address": "433 Victoria Avenue, Wanganui","region": "Manawatu","phone": "(06) 349 0070","latitude": -39.925088,"longitude": 175.038543},
{"name": "Countdown - Wanganui","address": "81A Taupo Quay, Wanganui","region": "Manawatu","phone": "(06) 345 8720","latitude": -39.938756,"longitude": 175.051855},
{"name": "Countdown - Carlyle","address": "33 Carlyle Street, Napier, Hawkes Bay","region": "Hawkes Bay","phone": "(06) 835 3643","latitude": -39.492174,"longitude": 176.910604},
{"name": "Countdown - Hastings","address": "200 Market St South, Hastings, Hawkes Bay","region": "Hawkes Bay","phone": "(06) 872 7237","latitude": -39.642088,"longitude": 176.840979},
{"name": "Countdown - Napier","address": "125 Raffles St, Napier, Hawkes Bay","region": "Hawkes Bay","phone": "(06) 834 1401","latitude": -39.494658,"longitude": 176.914423},
{"name": "Countdown - Waipukurau","address": "Ruataniwha Street, Waipukurau, Hawkes Bay","region": "Hawkes Bay","phone": "(06) 858 7999","latitude": -39.995533,"longitude": 176.555743},
{"name": "Countdown - Blenheim","address": "Seymour Street, Blenheim, Marlborough","region": "Marlborough","phone": "(03) 520 6130","latitude": -41.513418,"longitude": 173.954471},
{"name": "Countdown - Redwoodtown","address": "93 Weld Street, Redwoodtown, Blenheim, Marlborough","region": "Marlborough","phone": "(03) 520 6770","latitude": -41.529791,"longitude": 173.954994},
{"name": "Countdown - Springlands","address": "133 Middle Renwick Road, Blenheim, Marlborough","region": "Marlborough","phone": "(03) 520 8490","latitude": -41.509343,"longitude": 173.935086},
{"name": "Countdown - Gore","address": "24 Meadway Street, Gore, Southland","region": "Southland","phone": "(03) 209 0020","latitude": -46.098452,"longitude": 168.944151},
{"name": "Countdown - Invercargill","address": "172 Tay Street, Invercargill, Southland","region": "Southland","phone": "(03) 211 3100","latitude": -46.412245,"longitude": 168.358232},
{"name": "Countdown - Waikiwi","address": "16 Renfrew St, Waikiwi, Southland","region": "Southland","phone": "(03) 211 5190","latitude": -46.377789,"longitude": 168.346207},
{"name": "Countdown - Oamaru","address": "108-116 Thames Street, Oamaru","region": "Tasman","phone": "(03) 433 0419","latitude": -45.097271,"longitude": 170.971072},
{"name": "Countdown - Church St Timaru","address": "129 Church Street, Timaru","region": "Tasman","phone": "(03) 688 3136","latitude": -44.396036,"longitude": 171.238856},
{"name": "Countdown - Timaru","address": "1 Russel Sq, Timaru","region": "Tasman","phone": "(03) 688 9143","latitude": -44.404272,"longitude": 171.252318},
{"name": "Countdown - Masterton","address": "107 Dixon St, Masterton","region": "Tasman","phone": "(06) 377 0050","latitude": -40.953878,"longitude": 175.658078},
{"name": "New World - Te Rapa","address": "751 Te Rapa Road, Hamilton, Waikato","region": "Waikato","phone": "(07) 849 0300","latitude": -37.753271,"longitude": 175.239676},
{"name": "New World - Rototuna","address": "44 Horsham Downs Roads, Rototuna, North East Hamilton, Waikato","region": "Waikato","phone": "(07) 853 0260","latitude": -37.729030,"longitude": 175.273582},
{"name": "PAK'nSAVE - Glen Innes","address": "182 Apirana Ave, Glen Innes, Auckland","region": "Auckland","phone": "(09) 528-4885","latitude": -36.875417,"longitude": 174.854466},
{"name": "Greenways Showroom","address": "4 Domain Road, Panmure","region": "Auckland","phone": "(09) 908 5998","latitude": -36.901628,"longitude": 174.856673}]